{
"type": "FeatureCollection",
"name": "hotels_de_prefectures_FR",
"crs": { "type": "name", "properties": { "name": "urn:ogc:def:crs:OGC:1.3:CRS84" } },
"features": [
{ "type": "Feature", "properties": { "DeptNum": "2A", "Nom": "Palais Lantivy", "Commune": "Ajaccio", "DeptNom": "Corse-du-Sud", "LatDD": 41.919722222222219, "LonDD": 8.7361111111111107 }, "geometry": { "type": "Point", "coordinates": [ 8.736111111111111, 41.919722222222219 ] } },
{ "type": "Feature", "properties": { "DeptNum": "2B", "Nom": "Hôtel de préfecture", "Commune": "Bastia", "DeptNom": "Haute-Corse", "LatDD": 42.703611111111108, "LonDD": 9.4477777777777785 }, "geometry": { "type": "Point", "coordinates": [ 9.447777777777778, 42.703611111111108 ] } },
{ "type": "Feature", "properties": { "DeptNum": "1", "Nom": "Hôtel de préfecture", "Commune": "Bourg-en-Bresse", "DeptNom": "Ain", "LatDD": 46.2025, "LonDD": 5.2219444444444436 }, "geometry": { "type": "Point", "coordinates": [ 5.221944444444444, 46.2025 ] } },
{ "type": "Feature", "properties": { "DeptNum": "2", "Nom": "Hôtel de préfecture", "Commune": "Laon", "DeptNom": "Aisne", "LatDD": 49.562222222222225, "LonDD": 3.6225 }, "geometry": { "type": "Point", "coordinates": [ 3.6225, 49.562222222222225 ] } },
{ "type": "Feature", "properties": { "DeptNum": "3", "Nom": "Hôtel de préfecture", "Commune": "Moulins", "DeptNom": "Allier", "LatDD": 46.568333333333335, "LonDD": 3.3344444444444439 }, "geometry": { "type": "Point", "coordinates": [ 3.334444444444444, 46.568333333333335 ] } },
{ "type": "Feature", "properties": { "DeptNum": "4", "Nom": "Hôtel de préfecture", "Commune": "Digne-les-Bains", "DeptNom": "Alpes-de-Haute-Provence", "LatDD": 44.092222222222219, "LonDD": 6.2380555555555546 }, "geometry": { "type": "Point", "coordinates": [ 6.238055555555555, 44.092222222222219 ] } },
{ "type": "Feature", "properties": { "DeptNum": "5", "Nom": "Hôtel de préfecture", "Commune": "Gap", "DeptNom": "Hautes-Alpes", "LatDD": 44.5575, "LonDD": 6.0761111111111106 }, "geometry": { "type": "Point", "coordinates": [ 6.076111111111111, 44.5575 ] } },
{ "type": "Feature", "properties": { "DeptNum": "6", "Nom": "Palais des ducs de Savoie", "Commune": "Nice", "DeptNom": "Alpes-Maritimes", "LatDD": 43.69638888888889, "LonDD": 7.275 }, "geometry": { "type": "Point", "coordinates": [ 7.275, 43.69638888888889 ] } },
{ "type": "Feature", "properties": { "DeptNum": "7", "Nom": "Hôtel de préfecture", "Commune": "Privas", "DeptNom": "Ardèche", "LatDD": 44.735277777777775, "LonDD": 4.599444444444444 }, "geometry": { "type": "Point", "coordinates": [ 4.599444444444444, 44.735277777777775 ] } },
{ "type": "Feature", "properties": { "DeptNum": "8", "Nom": "École royale du génie de Mézières", "Commune": "Charleville-Mézières", "DeptNom": "Ardennes", "LatDD": 49.761388888888888, "LonDD": 4.72 }, "geometry": { "type": "Point", "coordinates": [ 4.72, 49.761388888888888 ] } },
{ "type": "Feature", "properties": { "DeptNum": "9", "Nom": "Hôtel de préfecture", "Commune": "Foix", "DeptNom": "Ariège", "LatDD": 42.967222222222219, "LonDD": 1.605833333333333 }, "geometry": { "type": "Point", "coordinates": [ 1.605833333333333, 42.967222222222219 ] } },
{ "type": "Feature", "properties": { "DeptNum": "10", "Nom": "Hôtel de préfecture", "Commune": "Troyes", "DeptNom": "Aube", "LatDD": 48.297777777777775, "LonDD": 4.0783333333333331 }, "geometry": { "type": "Point", "coordinates": [ 4.078333333333333, 48.297777777777775 ] } },
{ "type": "Feature", "properties": { "DeptNum": "11", "Nom": "Hôtel de préfecture", "Commune": "Carcassonne", "DeptNom": "Aude", "LatDD": 43.214722222222221, "LonDD": 2.3533333333333331 }, "geometry": { "type": "Point", "coordinates": [ 2.353333333333333, 43.214722222222221 ] } },
{ "type": "Feature", "properties": { "DeptNum": "12", "Nom": "Hôtel de préfecture", "Commune": "Rodez", "DeptNom": "Aveyron", "LatDD": 44.349444444444444, "LonDD": 2.5747222222222219 }, "geometry": { "type": "Point", "coordinates": [ 2.574722222222222, 44.349444444444444 ] } },
{ "type": "Feature", "properties": { "DeptNum": "13", "Nom": "Hôtel de préfecture", "Commune": "Marseille", "DeptNom": "Bouches-du-Rhône", "LatDD": 43.290277777777774, "LonDD": 5.38 }, "geometry": { "type": "Point", "coordinates": [ 5.38, 43.290277777777774 ] } },
{ "type": "Feature", "properties": { "DeptNum": "14", "Nom": "Hôtel de préfecture", "Commune": "Caen", "DeptNom": "Calvados", "LatDD": 49.18, "LonDD": -0.36527777777777798 }, "geometry": { "type": "Point", "coordinates": [ -0.365277777777778, 49.18 ] } },
{ "type": "Feature", "properties": { "DeptNum": "15", "Nom": "Hôtel de préfecture", "Commune": "Aurillac", "DeptNom": "Cantal", "LatDD": 44.929166666666667, "LonDD": 2.446944444444445 }, "geometry": { "type": "Point", "coordinates": [ 2.446944444444445, 44.929166666666667 ] } },
{ "type": "Feature", "properties": { "DeptNum": "16", "Nom": "Hôtel de préfecture", "Commune": "Angoulême", "DeptNom": "Charente", "LatDD": 45.645833333333336, "LonDD": 0.156944444444444 }, "geometry": { "type": "Point", "coordinates": [ 0.156944444444444, 45.645833333333336 ] } },
{ "type": "Feature", "properties": { "DeptNum": "17", "Nom": "Hôtel de préfecture", "Commune": "La Rochelle", "DeptNom": "Charente-Maritime", "LatDD": 46.1575, "LonDD": -1.1572222222222219 }, "geometry": { "type": "Point", "coordinates": [ -1.157222222222222, 46.1575 ] } },
{ "type": "Feature", "properties": { "DeptNum": "18", "Nom": "Hôtel de préfecture", "Commune": "Bourges", "DeptNom": "Cher", "LatDD": 47.081111111111113, "LonDD": 2.3952777777777778 }, "geometry": { "type": "Point", "coordinates": [ 2.395277777777778, 47.081111111111113 ] } },
{ "type": "Feature", "properties": { "DeptNum": "19", "Nom": "Hôtel de préfecture", "Commune": "Tulle", "DeptNom": "Corrèze", "LatDD": 45.271111111111111, "LonDD": 1.768888888888889 }, "geometry": { "type": "Point", "coordinates": [ 1.768888888888889, 45.271111111111111 ] } },
{ "type": "Feature", "properties": { "DeptNum": "21", "Nom": "Hôtel de préfecture", "Commune": "Dijon", "DeptNom": "Côte-d'Or", "LatDD": 47.324616438823348, "LonDD": 5.0419095417695443 }, "geometry": { "type": "Point", "coordinates": [ 5.041909541769544, 47.324616438823348 ] } },
{ "type": "Feature", "properties": { "DeptNum": "22", "Nom": "Hôtel de préfecture", "Commune": "Saint-Brieuc", "DeptNom": "Côtes-d'Armor", "LatDD": 48.514444444444443, "LonDD": -2.7658333333333331 }, "geometry": { "type": "Point", "coordinates": [ -2.765833333333333, 48.514444444444443 ] } },
{ "type": "Feature", "properties": { "DeptNum": "23", "Nom": "Hôtel de préfecture", "Commune": "Guéret", "DeptNom": "Creuse", "LatDD": 46.168888888888887, "LonDD": 1.869444444444444 }, "geometry": { "type": "Point", "coordinates": [ 1.869444444444444, 46.168888888888887 ] } },
{ "type": "Feature", "properties": { "DeptNum": "24", "Nom": "Hôtel de préfecture", "Commune": "Périgueux", "DeptNom": "Dordogne", "LatDD": 45.186944444444443, "LonDD": 0.72527777777777802 }, "geometry": { "type": "Point", "coordinates": [ 0.725277777777778, 45.186944444444443 ] } },
{ "type": "Feature", "properties": { "DeptNum": "25", "Nom": "Hôtel de préfecture", "Commune": "Besançon", "DeptNom": "Doubs", "LatDD": 47.233611111111109, "LonDD": 6.020833333333333 }, "geometry": { "type": "Point", "coordinates": [ 6.020833333333333, 47.233611111111109 ] } },
{ "type": "Feature", "properties": { "DeptNum": "26", "Nom": "Hôtel de préfecture", "Commune": "Valence", "DeptNom": "Drôme", "LatDD": 44.935555555555553, "LonDD": 4.8936111111111114 }, "geometry": { "type": "Point", "coordinates": [ 4.893611111111111, 44.935555555555553 ] } },
{ "type": "Feature", "properties": { "DeptNum": "27", "Nom": "Hôtel de préfecture", "Commune": "Évreux", "DeptNom": "Eure", "LatDD": 49.025555555555556, "LonDD": 1.1425 }, "geometry": { "type": "Point", "coordinates": [ 1.1425, 49.025555555555556 ] } },
{ "type": "Feature", "properties": { "DeptNum": "28", "Nom": "Hôtel de préfecture", "Commune": "Chartres", "DeptNom": "Eure-et-Loir", "LatDD": 48.445833333333333, "LonDD": 1.4816666666666669 }, "geometry": { "type": "Point", "coordinates": [ 1.481666666666667, 48.445833333333333 ] } },
{ "type": "Feature", "properties": { "DeptNum": "29", "Nom": "Hôtel de préfecture", "Commune": "Quimper", "DeptNom": "Finistère", "LatDD": 47.994444444444447, "LonDD": -4.1027777777777779 }, "geometry": { "type": "Point", "coordinates": [ -4.102777777777778, 47.994444444444447 ] } },
{ "type": "Feature", "properties": { "DeptNum": "30", "Nom": "Hôtel de préfecture", "Commune": "Nîmes", "DeptNom": "Gard", "LatDD": 43.831944444444446, "LonDD": 4.3630555555555546 }, "geometry": { "type": "Point", "coordinates": [ 4.363055555555555, 43.831944444444446 ] } },
{ "type": "Feature", "properties": { "DeptNum": "31", "Nom": "Hôtel de préfecture", "Commune": "Toulouse", "DeptNom": "Haute-Garonne", "LatDD": 43.598611111111111, "LonDD": 1.450277777777778 }, "geometry": { "type": "Point", "coordinates": [ 1.450277777777778, 43.598611111111111 ] } },
{ "type": "Feature", "properties": { "DeptNum": "32", "Nom": "Hôtel de préfecture", "Commune": "Auch", "DeptNom": "Gers", "LatDD": 43.646666666666668, "LonDD": 0.58638888888888896 }, "geometry": { "type": "Point", "coordinates": [ 0.586388888888889, 43.646666666666668 ] } },
{ "type": "Feature", "properties": { "DeptNum": "33", "Nom": "Hôtel de préfecture", "Commune": "Bordeaux", "DeptNom": "Gironde", "LatDD": 44.8375, "LonDD": -0.586666666666667 }, "geometry": { "type": "Point", "coordinates": [ -0.586666666666667, 44.8375 ] } },
{ "type": "Feature", "properties": { "DeptNum": "34", "Nom": "Hôtel de préfecture", "Commune": "Montpellier", "DeptNom": "Hérault", "LatDD": 43.611111111111114, "LonDD": 3.8766666666666669 }, "geometry": { "type": "Point", "coordinates": [ 3.876666666666667, 43.611111111111114 ] } },
{ "type": "Feature", "properties": { "DeptNum": "35", "Nom": "Hôtel de préfecture", "Commune": "Rennes", "DeptNom": "Ille-et-Vilaine", "LatDD": 48.113611111111112, "LonDD": -1.6744444444444451 }, "geometry": { "type": "Point", "coordinates": [ -1.674444444444445, 48.113611111111112 ] } },
{ "type": "Feature", "properties": { "DeptNum": "36", "Nom": "Hôtel de préfecture", "Commune": "Châteauroux", "DeptNom": "Indre", "LatDD": 46.811666666666667, "LonDD": 1.6869444444444439 }, "geometry": { "type": "Point", "coordinates": [ 1.686944444444444, 46.811666666666667 ] } },
{ "type": "Feature", "properties": { "DeptNum": "37", "Nom": "Hôtel de préfecture", "Commune": "Tours", "DeptNom": "Indre-et-Loire", "LatDD": 47.393055555555556, "LonDD": 0.69194444444444403 }, "geometry": { "type": "Point", "coordinates": [ 0.691944444444444, 47.393055555555556 ] } },
{ "type": "Feature", "properties": { "DeptNum": "38", "Nom": "Hôtel de préfecture", "Commune": "Grenoble", "DeptNom": "Isère", "LatDD": 45.188333333333333, "LonDD": 5.7325 }, "geometry": { "type": "Point", "coordinates": [ 5.7325, 45.188333333333333 ] } },
{ "type": "Feature", "properties": { "DeptNum": "39", "Nom": "Hôtel de préfecture", "Commune": "Lons-le-Saunier", "DeptNom": "Jura", "LatDD": 46.671944444444442, "LonDD": 5.5505555555555546 }, "geometry": { "type": "Point", "coordinates": [ 5.550555555555555, 46.671944444444442 ] } },
{ "type": "Feature", "properties": { "DeptNum": "40", "Nom": "Hôtel de préfecture", "Commune": "Mont-de-Marsan", "DeptNom": "Landes", "LatDD": 43.893333333333331, "LonDD": -0.49972222222222201 }, "geometry": { "type": "Point", "coordinates": [ -0.499722222222222, 43.893333333333331 ] } },
{ "type": "Feature", "properties": { "DeptNum": "41", "Nom": "Hôtel de préfecture", "Commune": "Blois", "DeptNom": "Loir-et-Cher", "LatDD": 47.590833333333336, "LonDD": 1.3338888888888889 }, "geometry": { "type": "Point", "coordinates": [ 1.333888888888889, 47.590833333333336 ] } },
{ "type": "Feature", "properties": { "DeptNum": "42", "Nom": "Hôtel de préfecture", "Commune": "Saint-Étienne", "DeptNom": "Loire", "LatDD": 45.4425, "LonDD": 4.3863888888888889 }, "geometry": { "type": "Point", "coordinates": [ 4.386388888888889, 45.4425 ] } },
{ "type": "Feature", "properties": { "DeptNum": "43", "Nom": "Hôtel de préfecture", "Commune": "Le Puy-en-Velay", "DeptNom": "Haute-Loire", "LatDD": 45.041111111111114, "LonDD": 3.8838888888888889 }, "geometry": { "type": "Point", "coordinates": [ 3.883888888888889, 45.041111111111114 ] } },
{ "type": "Feature", "properties": { "DeptNum": "44", "Nom": "Hôtel de préfecture", "Commune": "Nantes", "DeptNom": "Loire-Atlantique", "LatDD": 47.220555555555556, "LonDD": -1.553055555555555 }, "geometry": { "type": "Point", "coordinates": [ -1.553055555555555, 47.220555555555556 ] } },
{ "type": "Feature", "properties": { "DeptNum": "45", "Nom": "Hôtel de préfecture", "Commune": "Orléans", "DeptNom": "Loiret", "LatDD": 47.900277777777781, "LonDD": 1.910555555555556 }, "geometry": { "type": "Point", "coordinates": [ 1.910555555555556, 47.900277777777781 ] } },
{ "type": "Feature", "properties": { "DeptNum": "46", "Nom": "Hôtel de préfecture", "Commune": "Cahors", "DeptNom": "Lot", "LatDD": 44.4475, "LonDD": 1.4422222222222221 }, "geometry": { "type": "Point", "coordinates": [ 1.442222222222222, 44.4475 ] } },
{ "type": "Feature", "properties": { "DeptNum": "47", "Nom": "Hôtel de préfecture", "Commune": "Agen", "DeptNom": "Lot-et-Garonne", "LatDD": 44.198611111111113, "LonDD": 0.61472222222222195 }, "geometry": { "type": "Point", "coordinates": [ 0.614722222222222, 44.198611111111113 ] } },
{ "type": "Feature", "properties": { "DeptNum": "48", "Nom": "Hôtel de préfecture", "Commune": "Mende", "DeptNom": "Lozère", "LatDD": 44.517777777777781, "LonDD": 3.4983333333333331 }, "geometry": { "type": "Point", "coordinates": [ 3.498333333333333, 44.517777777777781 ] } },
{ "type": "Feature", "properties": { "DeptNum": "49", "Nom": "Hôtel de préfecture", "Commune": "Angers", "DeptNom": "Maine-et-Loire", "LatDD": 47.466111111111111, "LonDD": -0.555 }, "geometry": { "type": "Point", "coordinates": [ -0.555, 47.466111111111111 ] } },
{ "type": "Feature", "properties": { "DeptNum": "50", "Nom": "Hôtel de préfecture", "Commune": "Saint-Lô", "DeptNom": "Manche", "LatDD": 49.11611111111111, "LonDD": -1.0955555555555561 }, "geometry": { "type": "Point", "coordinates": [ -1.095555555555556, 49.11611111111111 ] } },
{ "type": "Feature", "properties": { "DeptNum": "51", "Nom": "Hôtel de préfecture", "Commune": "Châlons-en-Champagne", "DeptNom": "Marne", "LatDD": 48.953333333333333, "LonDD": 4.3663888888888893 }, "geometry": { "type": "Point", "coordinates": [ 4.366388888888889, 48.953333333333333 ] } },
{ "type": "Feature", "properties": { "DeptNum": "52", "Nom": "Hôtel de préfecture", "Commune": "Chaumont", "DeptNom": "Haute-Marne", "LatDD": 48.114444444444445, "LonDD": 5.1405555555555553 }, "geometry": { "type": "Point", "coordinates": [ 5.140555555555555, 48.114444444444445 ] } },
{ "type": "Feature", "properties": { "DeptNum": "53", "Nom": "Hôtel de préfecture", "Commune": "Laval", "DeptNom": "Mayenne", "LatDD": 48.069722222222225, "LonDD": -0.76638888888888901 }, "geometry": { "type": "Point", "coordinates": [ -0.766388888888889, 48.069722222222225 ] } },
{ "type": "Feature", "properties": { "DeptNum": "54", "Nom": "Hôtel de préfecture", "Commune": "Nancy", "DeptNom": "Meurthe-et-Moselle", "LatDD": 48.694166666666668, "LonDD": 6.1852777777777774 }, "geometry": { "type": "Point", "coordinates": [ 6.185277777777777, 48.694166666666668 ] } },
{ "type": "Feature", "properties": { "DeptNum": "55", "Nom": "Hôtel de préfecture", "Commune": "Bar-le-Duc", "DeptNom": "Meuse", "LatDD": 48.773888888888891, "LonDD": 5.1580555555555554 }, "geometry": { "type": "Point", "coordinates": [ 5.158055555555555, 48.773888888888891 ] } },
{ "type": "Feature", "properties": { "DeptNum": "56", "Nom": "Hôtel de préfecture", "Commune": "Vannes", "DeptNom": "Morbihan", "LatDD": 47.658055555555556, "LonDD": -2.7536111111111108 }, "geometry": { "type": "Point", "coordinates": [ -2.753611111111111, 47.658055555555556 ] } },
{ "type": "Feature", "properties": { "DeptNum": "57", "Nom": "Hôtel de préfecture", "Commune": "Metz", "DeptNom": "Moselle", "LatDD": 49.1225, "LonDD": 6.174722222222222 }, "geometry": { "type": "Point", "coordinates": [ 6.174722222222222, 49.1225 ] } },
{ "type": "Feature", "properties": { "DeptNum": "58", "Nom": "Hôtel de préfecture", "Commune": "Nevers", "DeptNom": "Nièvre", "LatDD": 46.993333333333332, "LonDD": 3.1630555555555562 }, "geometry": { "type": "Point", "coordinates": [ 3.163055555555556, 46.993333333333332 ] } },
{ "type": "Feature", "properties": { "DeptNum": "59", "Nom": "Hôtel de préfecture", "Commune": "Lille", "DeptNom": "Nord", "LatDD": 50.632222222222225, "LonDD": 3.0597222222222218 }, "geometry": { "type": "Point", "coordinates": [ 3.059722222222222, 50.632222222222225 ] } },
{ "type": "Feature", "properties": { "DeptNum": "60", "Nom": "Hôtel de préfecture", "Commune": "Beauvais", "DeptNom": "Oise", "LatDD": 49.440555555555555, "LonDD": 2.0766666666666671 }, "geometry": { "type": "Point", "coordinates": [ 2.076666666666667, 49.440555555555555 ] } },
{ "type": "Feature", "properties": { "DeptNum": "61", "Nom": "Hôtel de préfecture", "Commune": "Alençon", "DeptNom": "Orne", "LatDD": 48.4325, "LonDD": 0.091388888888889006 }, "geometry": { "type": "Point", "coordinates": [ 0.091388888888889, 48.4325 ] } },
{ "type": "Feature", "properties": { "DeptNum": "62", "Nom": "Hôtel de préfecture", "Commune": "Arras", "DeptNom": "Pas-de-Calais", "LatDD": 50.292777777777779, "LonDD": 2.7647222222222219 }, "geometry": { "type": "Point", "coordinates": [ 2.764722222222222, 50.292777777777779 ] } },
{ "type": "Feature", "properties": { "DeptNum": "63", "Nom": "Hôtel de préfecture", "Commune": "Clermont-Ferrand", "DeptNom": "Puy-de-Dôme", "LatDD": 45.777222222222221, "LonDD": 3.0841666666666669 }, "geometry": { "type": "Point", "coordinates": [ 3.084166666666667, 45.777222222222221 ] } },
{ "type": "Feature", "properties": { "DeptNum": "64", "Nom": "Hôtel de préfecture", "Commune": "Pau", "DeptNom": "Pyrénées-Atlantiques", "LatDD": 43.296111111111109, "LonDD": -0.36916666666666698 }, "geometry": { "type": "Point", "coordinates": [ -0.369166666666667, 43.296111111111109 ] } },
{ "type": "Feature", "properties": { "DeptNum": "65", "Nom": "Hôtel de préfecture", "Commune": "Tarbes", "DeptNom": "Hautes-Pyrénées", "LatDD": 43.234166666666667, "LonDD": 0.068055555555555994 }, "geometry": { "type": "Point", "coordinates": [ 0.068055555555556, 43.234166666666667 ] } },
{ "type": "Feature", "properties": { "DeptNum": "66", "Nom": "Hôtel de préfecture", "Commune": "Perpignan", "DeptNom": "Pyrénées-Orientales", "LatDD": 42.7, "LonDD": 2.8936111111111109 }, "geometry": { "type": "Point", "coordinates": [ 2.893611111111111, 42.7 ] } },
{ "type": "Feature", "properties": { "DeptNum": "67", "Nom": "Hôtel de préfecture", "Commune": "Strasbourg", "DeptNom": "Bas-Rhin", "LatDD": 48.588333333333331, "LonDD": 7.755 }, "geometry": { "type": "Point", "coordinates": [ 7.755, 48.588333333333331 ] } },
{ "type": "Feature", "properties": { "DeptNum": "68", "Nom": "Hôtel de préfecture", "Commune": "Colmar", "DeptNom": "Haut-Rhin", "LatDD": 48.074166666666663, "LonDD": 7.3513888888888888 }, "geometry": { "type": "Point", "coordinates": [ 7.351388888888889, 48.074166666666663 ] } },
{ "type": "Feature", "properties": { "DeptNum": "69", "Nom": "Hôtel de préfecture", "Commune": "Lyon", "DeptNom": "Rhône", "LatDD": 45.760833333333331, "LonDD": 4.8433333333333337 }, "geometry": { "type": "Point", "coordinates": [ 4.843333333333334, 45.760833333333331 ] } },
{ "type": "Feature", "properties": { "DeptNum": "70", "Nom": "Hôtel de préfecture", "Commune": "Vesoul", "DeptNom": "Haute-Saône", "LatDD": 47.623333333333335, "LonDD": 6.1525 }, "geometry": { "type": "Point", "coordinates": [ 6.1525, 47.623333333333335 ] } },
{ "type": "Feature", "properties": { "DeptNum": "71", "Nom": "Hôtel de préfecture", "Commune": "Mâcon", "DeptNom": "Saône-et-Loire", "LatDD": 46.306994303845883, "LonDD": 4.8347044380234516 }, "geometry": { "type": "Point", "coordinates": [ 4.834704438023452, 46.306994303845883 ] } },
{ "type": "Feature", "properties": { "DeptNum": "72", "Nom": "Hôtel de préfecture", "Commune": "Le Mans", "DeptNom": "Sarthe", "LatDD": 48.000833333333333, "LonDD": 0.19722222222222199 }, "geometry": { "type": "Point", "coordinates": [ 0.197222222222222, 48.000833333333333 ] } },
{ "type": "Feature", "properties": { "DeptNum": "73", "Nom": "Hôtel de préfecture", "Commune": "Chambéry", "DeptNom": "Savoie", "LatDD": 45.564166666666665, "LonDD": 5.9180555555555561 }, "geometry": { "type": "Point", "coordinates": [ 5.918055555555556, 45.564166666666665 ] } },
{ "type": "Feature", "properties": { "DeptNum": "74", "Nom": "Hôtel de préfecture", "Commune": "Annecy", "DeptNom": "Haute-Savoie", "LatDD": 45.9025, "LonDD": 6.1297222222222221 }, "geometry": { "type": "Point", "coordinates": [ 6.129722222222222, 45.9025 ] } },
{ "type": "Feature", "properties": { "DeptNum": "75", "Nom": "Hôtel de préfecture", "Commune": "Paris", "DeptNom": "Paris", "LatDD": 48.856296190448617, "LonDD": 2.3532802187024688 }, "geometry": { "type": "Point", "coordinates": [ 2.353280218702469, 48.856296190448617 ] } },
{ "type": "Feature", "properties": { "DeptNum": "76", "Nom": "Hôtel de préfecture", "Commune": "Rouen", "DeptNom": "Seine-Maritime", "LatDD": 49.446111111111108, "LonDD": 1.0808333333333331 }, "geometry": { "type": "Point", "coordinates": [ 1.080833333333333, 49.446111111111108 ] } },
{ "type": "Feature", "properties": { "DeptNum": "77", "Nom": "Hôtel de préfecture", "Commune": "Melun", "DeptNom": "Seine-et-Marne", "LatDD": 48.540555555555557, "LonDD": 2.655 }, "geometry": { "type": "Point", "coordinates": [ 2.655, 48.540555555555557 ] } },
{ "type": "Feature", "properties": { "DeptNum": "78", "Nom": "Hôtel de préfecture", "Commune": "Versailles", "DeptNom": "Yvelines", "LatDD": 48.8025, "LonDD": 2.1325 }, "geometry": { "type": "Point", "coordinates": [ 2.1325, 48.8025 ] } },
{ "type": "Feature", "properties": { "DeptNum": "79", "Nom": "Hôtel de préfecture", "Commune": "Niort", "DeptNom": "Deux-Sèvres", "LatDD": 46.325, "LonDD": -0.46583333333333299 }, "geometry": { "type": "Point", "coordinates": [ -0.465833333333333, 46.325 ] } },
{ "type": "Feature", "properties": { "DeptNum": "80", "Nom": "Hôtel de préfecture", "Commune": "Amiens", "DeptNom": "Somme", "LatDD": 49.890555555555558, "LonDD": 2.296388888888889 }, "geometry": { "type": "Point", "coordinates": [ 2.296388888888889, 49.890555555555558 ] } },
{ "type": "Feature", "properties": { "DeptNum": "81", "Nom": "Hôtel de préfecture", "Commune": "Albi", "DeptNom": "Tarn", "LatDD": 43.928333333333335, "LonDD": 2.1463888888888891 }, "geometry": { "type": "Point", "coordinates": [ 2.146388888888889, 43.928333333333335 ] } },
{ "type": "Feature", "properties": { "DeptNum": "82", "Nom": "Hôtel de préfecture", "Commune": "Montauban", "DeptNom": "Tarn-et-Garonne", "LatDD": 44.015833333333333, "LonDD": 1.3563888888888891 }, "geometry": { "type": "Point", "coordinates": [ 1.356388888888889, 44.015833333333333 ] } },
{ "type": "Feature", "properties": { "DeptNum": "83", "Nom": "Hôtel de préfecture", "Commune": "Toulon", "DeptNom": "Var", "LatDD": 43.129444444444445, "LonDD": 5.9341666666666661 }, "geometry": { "type": "Point", "coordinates": [ 5.934166666666666, 43.129444444444445 ] } },
{ "type": "Feature", "properties": { "DeptNum": "84", "Nom": "Hôtel de préfecture", "Commune": "Avignon", "DeptNom": "Vaucluse", "LatDD": 43.948333333333331, "LonDD": 4.8191666666666668 }, "geometry": { "type": "Point", "coordinates": [ 4.819166666666667, 43.948333333333331 ] } },
{ "type": "Feature", "properties": { "DeptNum": "85", "Nom": "Hôtel de préfecture", "Commune": "La Roche-sur-Yon", "DeptNom": "Vendée", "LatDD": 46.6675, "LonDD": -1.4280555555555561 }, "geometry": { "type": "Point", "coordinates": [ -1.428055555555556, 46.6675 ] } },
{ "type": "Feature", "properties": { "DeptNum": "86", "Nom": "Hôtel de préfecture", "Commune": "Poitiers", "DeptNom": "Vienne", "LatDD": 46.580833333333331, "LonDD": 0.33583333333333298 }, "geometry": { "type": "Point", "coordinates": [ 0.335833333333333, 46.580833333333331 ] } },
{ "type": "Feature", "properties": { "DeptNum": "87", "Nom": "Hôtel de préfecture", "Commune": "Limoges", "DeptNom": "Haute-Vienne", "LatDD": 45.833333333333336, "LonDD": 1.256944444444444 }, "geometry": { "type": "Point", "coordinates": [ 1.256944444444444, 45.833333333333336 ] } },
{ "type": "Feature", "properties": { "DeptNum": "88", "Nom": "Hôtel de préfecture", "Commune": "Épinal", "DeptNom": "Vosges", "LatDD": 48.170277777777777, "LonDD": 6.45 }, "geometry": { "type": "Point", "coordinates": [ 6.45, 48.170277777777777 ] } },
{ "type": "Feature", "properties": { "DeptNum": "89", "Nom": "Hôtel de préfecture", "Commune": "Auxerre", "DeptNom": "Yonne", "LatDD": 47.798055555555557, "LonDD": 3.572222222222222 }, "geometry": { "type": "Point", "coordinates": [ 3.572222222222222, 47.798055555555557 ] } },
{ "type": "Feature", "properties": { "DeptNum": "90", "Nom": "Hôtel de préfecture", "Commune": "Belfort", "DeptNom": "Territoire de Belfort", "LatDD": 47.638242573387792, "LonDD": 6.8613706430490344 }, "geometry": { "type": "Point", "coordinates": [ 6.861370643049034, 47.638242573387792 ] } },
{ "type": "Feature", "properties": { "DeptNum": "91", "Nom": "Hôtel de préfecture", "Commune": "Évry", "DeptNom": "Essonne", "LatDD": 48.628888888888888, "LonDD": 2.435 }, "geometry": { "type": "Point", "coordinates": [ 2.435, 48.628888888888888 ] } },
{ "type": "Feature", "properties": { "DeptNum": "92", "Nom": "Hôtel de préfecture", "Commune": "Nanterre", "DeptNom": "Hauts-de-Seine", "LatDD": 48.897222222222226, "LonDD": 2.2158333333333329 }, "geometry": { "type": "Point", "coordinates": [ 2.215833333333333, 48.897222222222226 ] } },
{ "type": "Feature", "properties": { "DeptNum": "93", "Nom": "Hôtel de préfecture", "Commune": "Bobigny", "DeptNom": "Seine-Saint-Denis", "LatDD": 48.905277777777776, "LonDD": 2.450277777777778 }, "geometry": { "type": "Point", "coordinates": [ 2.450277777777778, 48.905277777777776 ] } },
{ "type": "Feature", "properties": { "DeptNum": "94", "Nom": "Hôtel de préfecture", "Commune": "Créteil", "DeptNom": "Val-de-Marne", "LatDD": 48.781944444444441, "LonDD": 2.4513888888888888 }, "geometry": { "type": "Point", "coordinates": [ 2.451388888888889, 48.781944444444441 ] } },
{ "type": "Feature", "properties": { "DeptNum": "95", "Nom": "Hôtel de préfecture", "Commune": "Pontoise", "DeptNom": "Val-d'Oise", "LatDD": 49.035277777777779, "LonDD": 2.0777777777777779 }, "geometry": { "type": "Point", "coordinates": [ 2.077777777777778, 49.035277777777779 ] } },
{ "type": "Feature", "properties": { "DeptNum": "971", "Nom": "Hôtel de préfecture", "Commune": "Basse-Terre", "DeptNom": "Guadeloupe", "LatDD": 15.9925, "LonDD": -61.7225 }, "geometry": { "type": "Point", "coordinates": [ -61.7225, 15.9925 ] } },
{ "type": "Feature", "properties": { "DeptNum": "972", "Nom": "Hôtel de préfecture", "Commune": "Fort-de-France", "DeptNom": "Martinique", "LatDD": 14.605833333333333, "LonDD": -61.067777777777778 }, "geometry": { "type": "Point", "coordinates": [ -61.067777777777778, 14.605833333333333 ] } },
{ "type": "Feature", "properties": { "DeptNum": "973", "Nom": "Hôtel de préfecture", "Commune": "Cayenne", "DeptNom": "Guyane", "LatDD": 4.9375, "LonDD": -52.332222222222221 }, "geometry": { "type": "Point", "coordinates": [ -52.332222222222221, 4.9375 ] } },
{ "type": "Feature", "properties": { "DeptNum": "974", "Nom": "Hôtel de préfecture", "Commune": "Saint-Denis", "DeptNom": "Réunion", "LatDD": -20.875833333333333, "LonDD": 55.446111111111108 }, "geometry": { "type": "Point", "coordinates": [ 55.446111111111108, -20.875833333333333 ] } },
{ "type": "Feature", "properties": { "DeptNum": "976", "Nom": "Hôtel de préfecture", "Commune": "Mamoudzou", "DeptNom": "Mayotte", "LatDD": -12.775555555555556, "LonDD": 45.229166666666664 }, "geometry": { "type": "Point", "coordinates": [ 45.229166666666664, -12.775555555555556 ] } },
{ "type": "Feature", "properties": { "DeptNum": "977", "Nom": "Hôtel de préfecture", "Commune": "Marigot, Saint-Martin", "DeptNom": "Saint-Barthélemy", "LatDD": 18.070277777777779, "LonDD": -63.084722222222226 }, "geometry": { "type": "Point", "coordinates": [ -63.084722222222226, 18.070277777777779 ] } },
{ "type": "Feature", "properties": { "DeptNum": "978", "Nom": "Hôtel de préfecture", "Commune": "Marigot", "DeptNom": "Saint-Martin", "LatDD": 18.070277777777779, "LonDD": -63.084722222222226 }, "geometry": { "type": "Point", "coordinates": [ -63.084722222222226, 18.070277777777779 ] } },
{ "type": "Feature", "properties": { "DeptNum": "987", "Nom": "Haut-commissariat de la République", "Commune": "Papeete", "DeptNom": "Polynésie française", "LatDD": -17.544444444444444, "LonDD": -149.56944444444446 }, "geometry": { "type": "Point", "coordinates": [ -149.569444444444457, -17.544444444444444 ] } },
{ "type": "Feature", "properties": { "DeptNum": "988", "Nom": "Haut-commissariat de la République", "Commune": "Nouméa", "DeptNom": "Nouvelle-Calédonie", "LatDD": -22.268055555555556, "LonDD": 166.44305555555556 }, "geometry": { "type": "Point", "coordinates": [ 166.44305555555556, -22.268055555555556 ] } }
]
}
